City_ID,City,Lat,Lng,Max Temp,Humidity,Cloudiness,Wind Speed,Country,Date
0,katima mulilo,-17.5,24.2667,29.0,5,2,2.89,NA,1722245792
1,nizhneangarsk,55.7833,109.55,15.16,82,63,1.34,RU,1722245792
2,polyarnyy,69.1989,33.4478,11.75,81,94,5.99,RU,1722245792
3,fort stockton,30.894,-102.8793,24.31,68,0,0.89,US,1722245793
4,isafjordur,66.0755,-23.124,11.02,87,100,1.03,IS,1722245793
5,aasiaat,68.7098,-52.8699,2.52,98,100,6.21,GL,1722245793
6,dudinka,69.4058,86.1778,27.99,38,21,5.17,RU,1722245794
7,port mathurin,-19.6833,63.4167,22.06,68,6,6.53,MU,1722245794
8,manuguru,17.981,80.7547,29.94,79,100,3.53,IN,1722245794
9,edinburgh of the seven seas,-37.0676,-12.3116,13.85,92,33,4.9,SH,1722245795
10,port lincoln,-34.7333,135.8667,11.82,67,93,4.2,AU,1722245795
11,mount gambier,-37.8333,140.7667,6.16,86,100,1.67,AU,1722245796
12,talnakh,69.4865,88.3972,28.04,35,13,3.08,RU,1722245796
13,dalandzadgad,43.5708,104.425,25.1,37,100,8.2,MN,1722245797
14,rosarito,32.3333,-117.0333,18.53,82,0,3.34,MX,1722245797
15,jamestown,42.097,-79.2353,17.8,97,0,2.06,US,1722245514
16,alice springs,-23.7,133.8833,13.75,23,0,3.6,AU,1722245798
17,auki,-8.7676,160.7034,24.19,84,81,2.78,SB,1722245798
18,ulladulla,-35.35,150.4667,8.2,61,61,7.2,AU,1722245798
19,alotau,-10.3069,150.4462,23.18,91,81,2.01,PG,1722245799
20,forio,40.7342,13.8646,33.72,82,0,1.34,IT,1722245799
21,rieti,42.4072,12.8592,33.7,42,0,1.54,IT,1722245799
22,newman,37.3138,-121.0208,18.99,77,0,1.77,US,1722245800
23,turpan,42.9333,89.1667,46.45,10,26,4.81,CN,1722245800
24,port-aux-francais,-49.35,70.2167,0.28,67,100,12.3,TF,1722245800
25,hovd,48.0056,91.6419,27.48,28,99,5.24,MN,1722245800
26,kavaratti,10.5669,72.642,28.12,85,100,9.72,IN,1722245801
27,lexington,37.9887,-84.4777,21.74,87,48,3.14,US,1722245604
28,port elizabeth,-33.918,25.5701,15.61,50,20,8.75,ZA,1722245801
29,grytviken,-54.2811,-36.5092,-2.54,73,12,3.56,GS,1722245802
30,martuk,50.7475,56.5056,22.67,50,99,1.15,KZ,1722245802
31,vorgashor,67.5833,63.95,24.09,45,98,6.28,RU,1722245802
32,tura,25.5198,90.2201,30.11,79,100,2.54,IN,1722245803
33,blackmans bay,-43.0167,147.3167,3.07,88,17,0.45,AU,1722245803
34,alofi,-19.0595,-169.9187,19.94,68,40,7.2,NU,1722245803
35,callao,-12.0667,-77.15,16.51,82,100,2.57,PE,1722245804
36,bethel,41.3712,-73.414,19.2,85,100,0.0,US,1722245804
37,waitangi,-43.9535,-176.5597,11.57,96,100,2.68,NZ,1722245805
38,adamstown,-25.066,-130.1015,20.86,80,29,6.26,PN,1722245805
39,as sulayyil,20.4607,45.5779,43.14,10,98,3.6,SA,1722245805
40,porto seguro,-16.4497,-39.0647,21.29,94,40,2.57,BR,1722245806
41,hithadhoo,-0.6,73.0833,28.74,73,100,5.74,MV,1722245806
42,lebu,-37.6167,-73.65,4.94,64,3,3.19,CL,1722245806
43,wailua homesteads,22.0669,-159.378,24.44,82,75,5.66,US,1722245807
44,kailua-kona,19.6406,-155.9956,26.98,82,0,2.57,US,1722245807
45,longyearbyen,78.2186,15.6401,9.91,93,75,4.63,SJ,1722245807
46,hawaiian paradise park,19.5933,-154.9731,21.61,93,13,1.74,US,1722245808
47,nar'yan-mar,67.6713,53.087,22.62,58,100,5.96,RU,1722245808
48,ancud,-41.8697,-73.8203,2.48,88,93,3.03,CL,1722245808
49,betio village,1.358,172.9211,27.02,68,22,0.79,KI,1722245722
50,constantia,44.1833,28.65,32.61,50,0,5.01,RO,1722245809
51,papatowai,-46.5619,169.4708,4.5,94,100,7.45,NZ,1722245809
52,puerto natales,-51.7236,-72.4875,-0.66,90,97,2.84,CL,1722245810
53,stanley,54.868,-1.6985,22.06,68,20,5.14,GB,1722245810
54,la passe,45.5549,-0.8967,31.68,49,2,4.02,FR,1722245810
55,aldan,58.6031,125.3894,18.45,85,79,8.27,RU,1722245811
56,hotan,37.0997,79.9269,41.79,7,7,4.05,CN,1722245811
57,kodiak,57.79,-152.4072,11.73,100,100,0.0,US,1722245811
58,gamba,-2.65,10.0,25.47,63,100,2.66,GA,1722245811
59,palmer,42.1584,-72.3287,18.68,82,100,3.09,US,1722245751
60,anadyr,64.75,177.4833,12.28,71,0,2.0,RU,1722245812
61,tateyama,34.9833,139.8667,27.23,87,100,3.47,JP,1722245812
62,ironwood,46.4547,-90.171,21.45,83,75,0.0,US,1722245813
63,rongelap,11.1635,166.8941,26.74,80,100,2.14,MH,1722245813
64,nabire,-3.3667,135.4833,25.7,86,16,0.08,ID,1722245813
65,saint-joseph,-21.3667,55.6167,25.21,70,9,2.7,RE,1722245814
66,carnarvon,-24.8667,113.6333,19.95,61,0,4.32,AU,1722245814
67,dunaivtsi,48.8891,26.8564,21.31,38,1,7.91,UA,1722245814
68,zhaqsy,51.9083,67.3133,20.24,43,42,6.37,KZ,1722245815
69,machico,32.7,-16.7667,26.67,78,40,3.09,PT,1722245815
70,bredasdorp,-34.5322,20.0403,13.38,59,15,8.32,ZA,1722245815
71,pisco,-13.7,-76.2167,16.03,88,100,0.51,PE,1722245816
72,yellowknife,62.456,-114.3525,15.29,72,100,4.12,CA,1722245816
73,new norfolk,-42.7826,147.0587,3.73,79,15,0.62,AU,1722245816
74,pathein,16.7833,94.7333,26.47,89,100,3.28,MM,1722245817
75,bamboo flat,11.7,92.7167,30.05,79,75,7.2,IN,1722245817
76,revda,56.801,59.9303,12.45,96,100,3.43,RU,1722245817
77,alajarvi,63.0,23.8167,21.97,57,100,3.76,FI,1722245818
78,bilibino,68.0546,166.4372,7.68,78,98,2.27,RU,1722245818
79,guerrero negro,27.9769,-114.0611,19.1,87,31,5.06,MX,1722245818
80,weno,7.4515,151.8468,29.08,75,77,4.81,FM,1722245818
81,tralee,52.2704,-9.7026,16.14,88,40,2.06,IE,1722245819
82,bubaque,11.2833,-15.8333,26.08,86,100,4.38,GW,1722245819
83,moranha,27.1833,94.9333,31.06,83,100,2.2,IN,1722245819
84,thompson,55.7435,-97.8558,16.09,94,100,1.54,CA,1722245820
85,qandala,11.472,49.8728,35.43,47,100,1.13,SO,1722245820
86,buka,40.8108,69.1986,41.2,11,0,3.4,UZ,1722245820
87,ta`u,-14.2336,-169.5144,24.85,61,91,9.58,AS,1722245821
88,otelu rosu,45.5333,22.3667,28.77,34,55,2.3,RO,1722245821
89,garachico,28.7781,-17.7646,22.06,69,75,4.12,ES,1722245821
90,nova sintra,14.8667,-24.7167,25.29,73,78,5.0,CV,1722245822
91,baise city,23.8997,106.6133,24.81,98,100,1.28,CN,1722245822
92,kupang,-10.1667,123.5833,29.32,79,40,3.09,ID,1722245822
93,utrik,11.2278,169.8474,26.05,89,100,6.83,MH,1722245823
94,olonkinbyen,70.9221,-8.7187,4.97,98,100,8.3,SJ,1722245823
95,svobodnyy,51.4,128.1333,29.43,38,0,2.72,RU,1722245823
96,fale old settlement,-9.3852,-171.2468,27.31,73,100,9.69,TK,1722245824
97,saacow,1.6279,42.4407,34.6,32,42,7.97,SO,1722245824
98,udachny,66.4167,112.4,18.28,46,42,8.34,RU,1722245824
99,egilsstadir,65.2653,-14.3948,15.95,67,75,8.23,IS,1722245825
100,boende,-0.2167,20.8667,34.76,34,49,2.25,CD,1722245825
101,albany,42.6001,-73.9662,19.96,93,100,1.21,US,1722245664
102,mejit,10.2753,170.8646,26.22,86,100,5.49,MH,1722245826
103,badger,64.8,-147.5333,13.53,92,100,1.54,US,1722245538
104,bridgewater,44.3835,-64.5155,18.71,90,93,3.09,CA,1722245826
105,iqaluit,63.7506,-68.5145,3.85,75,100,6.71,CA,1722245827
106,kununurra,-15.7667,128.7333,28.99,34,99,4.12,AU,1722245827
107,port alfred,-33.5906,26.891,15.66,49,56,3.58,ZA,1722245827
108,sergeyevka,53.88,67.4158,17.95,67,96,6.98,KZ,1722245828
109,joao camara,-5.5375,-35.8197,22.18,93,90,4.9,BR,1722245828
110,margaret river,-33.95,115.0667,15.07,83,100,6.67,AU,1722245828
111,ust'-donetskiy,47.6419,40.8718,35.34,20,48,6.59,RU,1722245828
112,cockburn town,21.4612,-71.1419,27.81,78,75,6.82,TC,1722245829
113,invercargill,-46.4,168.35,5.01,94,100,4.47,NZ,1722245829
114,sol'-iletsk,51.1631,54.9918,25.57,40,100,3.77,RU,1722245829
115,tsiombe,-25.3,45.4833,29.16,23,0,3.97,MG,1722245830
116,sao gabriel da cachoeira,-0.1303,-67.0892,22.78,95,84,0.99,BR,1722245830
117,praya,14.9215,-23.5087,26.3,65,20,4.12,CV,1722245831
118,nemuro,43.3236,145.575,16.37,99,100,11.07,JP,1722245831
119,college,64.8569,-147.8028,13.58,90,75,1.54,US,1722245831
120,nsanje,-16.92,35.262,36.04,10,0,1.03,MW,1722245832
121,nyurba,63.2842,118.3319,16.24,94,98,4.68,RU,1722245832
122,taoudenni,22.6783,-3.9836,42.51,11,71,6.01,ML,1722245832
123,chonchi,-42.6128,-73.8092,1.18,92,100,0.7,CL,1722245833
124,west island,-12.1568,96.8225,28.99,65,6,4.63,CC,1722245833
125,cruzeiro do sul,-29.5128,-51.9853,11.96,95,100,2.31,BR,1722245833
126,graaff-reinet,-32.2522,24.5308,10.51,45,0,3.3,ZA,1722245834
127,moree,-29.4667,149.85,5.96,62,0,4.2,AU,1722245834
128,klyuchi,52.2667,79.1667,27.4,32,17,3.98,RU,1722245834
129,mount isa,-20.7333,139.5,17.87,29,4,3.09,AU,1722245834
130,saipan,15.1355,145.701,29.39,74,0,2.57,MP,1722245835
131,elliot lake,46.3834,-82.6331,15.89,94,42,1.67,CA,1722245836
132,ribeira grande,38.5167,-28.7,25.99,88,20,1.54,PT,1722245836
133,riberalta,-10.9833,-66.1,19.7,51,2,0.82,BO,1722245836
134,remire-montjoly,4.9167,-52.2667,25.02,88,0,0.0,GF,1722245836
135,nederland,29.9744,-93.9924,27.02,94,0,2.57,US,1722245577
136,tazovsky,67.4667,78.7,24.72,45,13,5.66,RU,1722245837
137,ushuaia,-54.8,-68.3,-0.19,80,40,3.09,AR,1722245837
138,oranjestad,12.524,-70.027,27.97,80,20,5.66,AW,1722245838
139,inongo,-1.95,18.2667,26.43,47,26,0.72,CD,1722245838
140,swift current,50.2834,-107.8014,14.45,62,0,4.63,CA,1722245838
141,teotitlan,18.1319,-97.0767,18.62,91,82,0.99,MX,1722245839
142,georgetown,5.4112,100.3354,31.97,55,20,4.63,MY,1722245839
143,mili,6.0815,171.735,26.86,80,100,4.19,MH,1722245839
144,filey,54.21,-0.2892,23.83,64,21,2.24,GB,1722245840
145,mitsamiouli,-11.3847,43.2844,26.02,61,2,0.73,KM,1722245840
146,hermanus,-34.4187,19.2345,12.67,63,58,9.48,ZA,1722245840
147,castillos,-34.1667,-53.8333,4.29,66,0,2.32,UY,1722245840
148,alenquer,-1.9417,-54.7383,23.32,73,76,1.42,BR,1722245841
149,shingu,33.7333,135.9833,29.49,66,100,2.34,JP,1722245841
150,hatillo,18.4863,-66.8254,25.6,85,100,2.75,PR,1722245842
151,lihue,21.9789,-159.3672,24.77,81,75,5.66,US,1722245842
152,auburn,47.3073,-122.2284,16.97,87,100,2.57,US,1722245843
153,hoi an,15.8794,108.335,31.98,75,93,2.33,VN,1722245843
154,petropavlovsk-kamchatsky,53.0452,158.6483,10.33,100,100,1.0,RU,1722245618
155,keflavik,64.0049,-22.5624,10.95,93,75,9.26,IS,1722245844
156,ilulissat,69.2167,-51.1,7.01,70,75,5.14,GL,1722245844
157,dryden,49.7833,-92.7503,18.16,82,20,2.06,CA,1722245844
158,infantes,38.7367,-3.0122,27.23,24,96,4.07,ES,1722245845
159,abra pampa,-22.7205,-65.697,3.06,82,30,5.02,AR,1722245845
160,sisimiut,66.9395,-53.6735,4.62,89,100,12.47,GL,1722245845
161,chibougamau,49.9168,-74.3659,17.79,72,0,2.57,CA,1722245846
162,kirakira,-10.4544,161.9205,24.93,78,76,3.67,SB,1722245846
163,afaahiti,-17.75,-149.2833,25.93,81,10,8.49,PF,1722245846
164,tiksi,71.6872,128.8694,3.02,89,100,5.14,RU,1722245847
165,palikir - national government center,6.9248,158.1611,26.41,89,40,0.0,FM,1722245847
166,porto barra do ivinheima,-22.9667,-53.6667,17.18,55,2,1.58,BR,1722245847
167,puerto ayora,-0.7393,-90.3518,19.19,91,79,3.53,EC,1722245847
168,arvayheer,46.2639,102.775,26.16,29,64,3.51,MN,1722245848
169,sao joao da barra,-21.6403,-41.0511,19.05,64,0,4.85,BR,1722245848
170,monte argentario,42.4345,11.1195,32.89,39,0,2.06,IT,1722245848
171,i-n-salah,27.1935,2.4607,42.46,11,2,10.88,DZ,1722245849
172,kristiansund,63.1115,7.732,17.03,81,75,1.54,NO,1722245849
173,fortuna foothills,32.6578,-114.4119,30.12,17,0,2.57,US,1722245849
174,port douglas,-16.4833,145.4667,20.89,73,96,5.81,AU,1722245627
175,serhetabat,35.2799,62.3438,40.16,13,0,11.37,TM,1722245850
176,pachino,36.7186,15.0907,27.56,59,0,2.57,IT,1722245850
177,kiboga,0.9161,31.7742,29.4,40,26,0.95,UG,1722245851
178,wenatchee,47.4235,-120.3103,20.21,61,37,3.15,US,1722245851
179,kingston,17.997,-76.7936,28.53,74,20,3.09,JM,1722245851
180,huanan,46.2167,130.5167,23.66,87,100,1.85,CN,1722245851
181,les cayes,18.2,-73.75,26.17,85,100,2.46,HT,1722245852
182,santa terezinha,-29.9002,-50.0904,14.04,90,100,7.15,BR,1722245852
183,gwanda,-20.9333,29.0,25.55,7,0,2.94,ZW,1722245852
184,louisville,38.2542,-85.7594,23.01,95,100,3.09,US,1722245853
185,wajir,1.7471,40.0573,30.98,42,40,4.12,KE,1722245853
186,khandyga,62.6667,135.6,17.1,71,100,0.29,RU,1722245853
187,isangel,-19.55,169.2667,21.86,72,65,2.27,VU,1722245854
188,alesund,62.4723,6.1549,17.83,72,40,1.54,NO,1722245854
189,nogliki,51.8333,143.1667,12.77,91,100,3.49,RU,1722245854
190,barkot,30.8167,78.2,26.69,81,65,1.84,IN,1722245855
191,nikolayevsk-on-amure,53.1406,140.73,10.99,91,100,1.73,RU,1722245855
192,rio grande,-32.035,-52.0986,9.97,62,97,7.71,BR,1722245855
193,inirida,3.8653,-67.9239,22.22,99,98,1.06,CO,1722245856
194,tolanaro,-25.0319,46.9987,26.04,57,0,2.06,MG,1722245856
195,mount pearl,47.5166,-52.7813,20.18,86,20,9.77,CA,1722245856
196,pauini,-7.7136,-66.9764,20.11,61,6,0.91,BR,1722245857
197,labrador city,52.9463,-66.9114,20.1,69,0,5.36,CA,1722245857
198,al jawf,29.5,38.75,37.4,11,0,5.84,SA,1722245857
199,kapuskasing,49.4169,-82.4331,18.05,82,40,3.09,CA,1722245858
200,rustington,50.8103,-0.5067,24.63,59,20,5.14,GB,1722245858
201,tambura,5.6,27.4667,29.01,57,86,2.27,SS,1722245858
202,enewetak,11.3474,162.3373,28.01,77,29,3.25,MH,1722245858
203,hailey,43.5196,-114.3153,14.96,55,0,4.12,US,1722245859
204,saint-laurent-du-maroni,5.5039,-54.0289,21.95,95,21,1.03,GF,1722245859
205,hamilton,39.1834,-84.5333,23.46,93,100,2.06,US,1722245277
206,yuzhno-kurilsk,44.0306,145.8556,16.02,99,100,7.72,RU,1722245860
207,nuuk,64.1835,-51.7216,4.34,81,100,16.99,GL,1722245860
208,meadow lakes,61.6247,-149.6011,11.99,95,100,0.0,US,1722245860
209,al kharijah,25.4514,30.5464,38.22,15,30,2.97,EG,1722245861
210,bel ombre,-4.6167,55.4167,28.91,70,40,6.17,SC,1722245861
211,kodinsk,58.6881,99.1844,28.45,45,18,3.58,RU,1722245861
212,malazgirt,39.1427,42.5401,27.71,25,0,8.67,TR,1722245862
213,raton,36.9034,-104.4391,20.19,33,0,2.57,US,1722245862
214,siemiatycze,52.4272,22.8623,21.58,44,80,9.61,PL,1722245862
215,kingscliff,-28.2667,153.5667,12.89,50,0,3.09,AU,1722245863
216,pavilosta,56.8879,21.1859,17.95,81,100,13.27,LV,1722245863
217,bay city,43.5945,-83.8889,23.06,90,0,2.06,US,1722245863
218,queenstown,-31.8976,26.8753,11.11,22,0,5.81,ZA,1722245864
219,havre,49.5833,0.3333,24.63,56,100,5.14,FR,1722245864
220,westport,41.1415,-73.3579,19.9,86,100,7.72,US,1722245864
221,san jose del cabo,23.0589,-109.6977,29.77,79,10,2.1,MX,1722245865
222,el calafate,-50.3408,-72.2768,-3.54,78,91,1.21,AR,1722245865
223,fortuna,40.5982,-124.1573,14.4,95,100,0.0,US,1722245865
224,kurunegala,7.4863,80.3623,30.33,58,100,4.58,LK,1722245865
225,imperatriz,-5.5264,-47.4917,22.03,56,75,1.03,BR,1722245866
226,kavieng,-2.5744,150.7967,27.68,79,97,4.85,PG,1722245866
227,cururupu,-1.8283,-44.8683,23.61,91,6,1.03,BR,1722245866
228,port shepstone,-30.7414,30.455,18.58,32,0,6.14,ZA,1722245867
229,at taj,24.2049,23.2857,36.96,14,12,3.16,LY,1722245867
230,eastbourne,50.7687,0.2845,24.62,65,0,1.79,GB,1722245867
231,vila velha,-20.3297,-40.2925,21.97,90,0,2.57,BR,1722245868
232,horta,38.5333,-28.6333,25.57,88,20,1.54,PT,1722245868
233,haiku-pauwela,20.9219,-156.3051,22.34,79,0,5.66,US,1722245868
234,uaua,-9.8414,-39.4817,19.56,82,36,5.02,BR,1722245869
235,whitehorse,60.7161,-135.0538,11.43,63,20,4.12,CA,1722245869
236,nouadhibou,20.931,-17.0347,21.99,83,75,8.75,MR,1722245870
237,karratha,-20.7377,116.8463,22.87,31,11,2.16,AU,1722245870
238,changji,44.0167,87.3167,36.44,28,0,3.0,CN,1722245870
239,hirara,24.8,125.2833,30.15,84,40,9.26,JP,1722245871
240,kittila,67.6647,24.8936,17.08,77,0,4.12,FI,1722245871
241,praia da vitoria,38.7333,-27.0667,24.86,94,40,2.94,PT,1722245871
242,la'ie,21.6477,-157.9253,25.98,81,43,3.13,US,1722245872
243,lefka,35.1106,32.8506,35.04,35,0,3.83,CY,1722245872
244,lae,-6.7221,146.9847,23.37,89,49,2.19,PG,1722245872
245,coquimbo,-29.9533,-71.3436,9.85,100,100,1.03,CL,1722245873
246,sayre,41.979,-76.5155,16.82,94,42,1.21,US,1722245873
247,holualoa,19.6228,-155.9522,24.91,73,0,2.57,US,1722245873
248,xilin hot,43.9667,116.0333,29.32,36,100,0.59,CN,1722245874
249,philadelphia,39.9523,-75.1638,21.73,89,98,1.13,US,1722245833
250,mandan,46.8267,-100.8896,18.34,93,100,2.06,US,1722245874
251,brookings,44.3114,-96.7984,20.62,98,0,2.06,US,1722245844
252,natal,-5.795,-35.2094,23.36,94,40,2.06,BR,1722245875
253,rio gallegos,-51.6226,-69.2181,1.03,69,0,5.14,AR,1722245875
254,dawei,14.0833,98.2,24.63,94,100,3.08,MM,1722245875
255,susuman,62.7833,148.1667,17.15,47,77,4.36,RU,1722245876
256,shenjiamen,29.9576,122.298,27.37,90,0,5.93,CN,1722245876
257,margate,51.3813,1.3862,23.5,67,8,5.0,GB,1722245876
258,namibe,-15.1961,12.1522,19.85,70,57,4.13,AO,1722245877
259,nelson bay,-32.7167,152.15,13.89,75,100,1.79,AU,1722245877
260,plastun,44.7561,136.2939,18.71,99,99,1.11,RU,1722245877
261,pirot,43.1531,22.5861,33.0,32,0,4.31,RS,1722245878
262,qaqortoq,60.7167,-46.0333,5.53,77,8,1.19,GL,1722245878
263,pipili,20.1167,85.8333,31.19,79,75,1.54,IN,1722245878
264,howard springs,-12.497,131.047,28.95,71,59,2.76,AU,1722245879
265,san luis de la loma,17.2706,-100.8939,25.32,92,96,2.13,MX,1722245879
266,swakopmund,-22.6833,14.5333,10.55,88,0,2.15,NA,1722245879
267,yefremov,53.1481,38.0992,23.81,36,93,7.71,RU,1722245880
268,mponela,-13.5319,33.7401,27.05,13,1,3.04,MW,1722245880
269,tobelo,1.7284,128.0095,27.94,77,33,3.04,ID,1722245880
270,severo-yeniseyskiy,60.3725,93.0408,29.58,33,7,2.57,RU,1722245881
271,puerto baquerizo moreno,-0.9,-89.6,19.45,84,78,4.32,EC,1722245882
272,umm kaddadah,13.6017,26.6876,31.3,46,29,2.25,SD,1722245882
273,liberal,37.0431,-100.921,24.58,50,0,5.66,US,1722245882
274,oranjemund,-28.55,16.4333,14.16,51,0,4.57,NA,1722245883
275,quellon,-43.1167,-73.6167,3.8,83,100,2.37,CL,1722245883
276,laojunmiao,39.8333,97.7333,29.53,13,56,7.21,CN,1722245883
277,idri,27.5,13.2667,34.09,24,0,3.69,LY,1722245884
278,shetpe,44.1667,52.1167,29.23,27,75,3.15,KZ,1722245884
279,claiborne,32.516,-92.1918,25.84,90,0,1.54,US,1722245884
280,hadibu,12.65,54.0333,27.91,70,74,11.87,YE,1722245885
281,northam,51.0333,-4.2167,23.14,69,2,2.25,GB,1722245885
282,arvi,20.9833,78.2333,26.95,81,84,6.4,IN,1722245885
283,naze,28.3667,129.4833,29.51,78,90,1.03,JP,1722245886
284,port moresby,-9.4431,147.1797,24.67,78,9,7.92,PG,1722245886
285,puerto carreno,6.189,-67.4859,23.74,95,100,0.82,CO,1722245887
286,lompoc,34.6391,-120.4579,14.4,84,100,2.57,US,1722245887
287,aykhal,66.0,111.5,17.35,51,25,7.37,RU,1722245887
288,santa barbara,34.7333,-120.0343,11.44,81,100,0.0,US,1722245747
289,katabu,-4.9333,122.5167,25.52,83,75,3.38,ID,1722245888
290,daloa,6.8774,-6.4502,23.8,90,100,2.67,CI,1722245888
291,vodnyy,63.5046,53.4095,22.04,50,76,2.78,RU,1722245889
292,kiruna,67.8557,20.2251,11.51,82,100,4.63,SE,1722245889
293,kayangel,8.0823,134.7173,28.79,71,13,1.9,PW,1722245889
294,kerikeri,-35.2268,173.9474,12.17,93,100,4.05,NZ,1722245890
295,aiquile,-18.2041,-65.1807,11.37,91,100,1.34,BO,1722245890
296,buala,-8.145,159.5921,26.42,81,96,2.26,SB,1722245890
297,codrington,-38.2667,141.9667,10.16,70,100,0.79,AU,1722245891
298,sao jose da coroa grande,-8.8978,-35.1478,24.7,85,59,5.01,BR,1722245891
299,east end,34.5507,-92.341,25.42,87,1,2.53,US,1722245891
300,tagkawayan sabang,13.9911,122.5289,27.6,82,100,1.16,PH,1722245892
301,itoman,26.1247,127.6694,31.43,71,75,5.14,JP,1722245892
302,magadan,59.5667,150.8,12.37,74,6,2.68,RU,1722245892
303,bennettsville,34.6174,-79.6848,22.37,91,75,1.54,US,1722245893
304,farim,12.4839,-15.2217,28.05,79,99,1.43,GW,1722245893
305,minas de matahambre,22.5887,-83.9447,24.56,88,97,1.54,CU,1722245893
306,culfa,38.9558,45.6308,28.93,34,14,5.18,AZ,1722245894
307,okhotsk,59.3833,143.3,13.02,78,77,3.93,RU,1722245894
308,illizi,26.4833,8.4667,38.89,15,0,4.53,DZ,1722245894
309,stawell,-37.05,142.7667,8.86,74,100,0.23,AU,1722245895
310,hammerfest,70.6634,23.6821,11.25,100,100,3.09,NO,1722245895
311,saint-francois,46.4154,3.9054,26.49,73,0,2.28,FR,1722245895
312,kurchatov,51.6601,35.6521,23.01,28,77,7.86,RU,1722245867
313,kalmunai,7.4167,81.8167,33.05,49,100,1.22,LK,1722245896
314,punta arenas,-53.15,-70.9167,3.06,81,75,4.63,CL,1722245896
315,tyuratam,45.6507,63.3156,29.87,20,100,4.73,KZ,1722245896
316,mahajanga,-15.7167,46.3167,31.01,40,20,4.63,MG,1722245897
317,whangarei,-35.7317,174.3239,13.78,97,100,2.33,NZ,1722245897
318,bandon,51.7469,-8.7425,15.77,69,60,3.47,IE,1722245898
319,toliara,-23.35,43.6667,24.53,50,0,5.25,MG,1722245898
320,nagqu,31.5,92.0,14.29,37,100,4.79,CN,1722245898
321,caleta de carquin,-11.0925,-77.6267,15.74,87,38,1.54,PE,1722245899
322,malango,-2.9627,119.9001,20.93,99,64,0.73,ID,1722245899
323,eyl,7.9803,49.8164,34.42,42,43,11.55,SO,1722245899
324,melilla,35.2937,-2.9383,28.11,83,75,5.66,ES,1722245900
325,save,8.0425,2.486,23.83,86,100,2.93,BJ,1722245900
326,lisakovsk,52.5369,62.4936,20.78,48,58,6.52,KZ,1722245900
327,najran,17.4924,44.1277,35.36,15,93,9.62,SA,1722245901
328,avarua,-21.2078,-159.775,21.03,73,75,3.09,CK,1722245901
329,iaciara,-14.0958,-46.6317,18.83,51,2,0.83,BR,1722245901
330,port saint john's,-31.6229,29.5448,18.97,27,0,4.1,ZA,1722245902
331,khorugh,37.4897,71.553,28.37,19,0,1.5,TJ,1722245902
332,tromso,69.6496,18.957,15.01,67,40,2.06,NO,1722245902
333,mar del plata,-38.0023,-57.5575,3.86,62,2,4.47,AR,1722245903
334,port augusta,-32.5,137.7667,9.5,47,91,3.0,AU,1722245903
335,villa bruzual,9.3328,-69.1208,21.38,97,58,0.57,VE,1722245903
336,berdigestyakh,62.0989,126.6992,17.93,74,98,1.25,RU,1722245904
337,mgandu,-5.95,34.1333,28.47,21,3,3.17,TZ,1722245904
338,detroit lakes,46.8172,-95.8453,18.25,98,51,2.21,US,1722245905
339,lospalos,-8.5186,127.0025,21.71,95,79,3.07,TL,1722245905
340,dakhla,23.6848,-15.958,21.01,88,40,10.8,EH,1722245905
341,lerwick,60.1545,-1.1494,15.0,81,42,4.21,GB,1722245906
342,vilyuchinsk,52.9306,158.4028,11.15,97,100,0.55,RU,1722245906
343,bandirma,40.3522,27.9767,34.48,58,0,8.23,TR,1722245906
344,massawa,15.6097,39.45,37.54,40,100,6.6,ER,1722245907
345,uturoa,-16.7333,-151.4333,26.63,80,0,7.93,PF,1722245907
346,burutu,5.3509,5.5076,28.3,68,77,4.29,NG,1722245907
347,saint-gaudens,43.0833,0.6667,34.31,24,1,2.75,FR,1722245908
348,karibib,-21.9333,15.8333,22.2,6,0,2.54,NA,1722245908
349,bardai,11.65,7.2333,25.89,72,98,5.21,NG,1722245908
350,ouadda,8.0777,22.4007,22.67,88,100,1.76,CF,1722245909
351,freetown,8.484,-13.2299,24.84,88,75,2.06,SL,1722245909
352,awjilah,29.1081,21.2869,35.18,23,0,2.37,LY,1722245910
353,mahina,-17.5065,-149.489,26.87,78,100,3.6,PF,1722245910
354,tual,-5.6667,132.75,26.01,85,88,8.65,ID,1722245910
355,embi,48.8264,58.1442,29.91,22,73,5.52,KZ,1722245911
356,kedougou,12.5579,-12.1743,24.32,88,40,2.06,SN,1722245911
357,vernon,50.2581,-119.2691,21.2,52,87,1.54,CA,1722245911
358,la ronge,55.1001,-105.2842,16.14,88,0,1.54,CA,1722245911
359,masterton,-40.9597,175.6575,14.5,85,100,3.96,NZ,1722245912
360,george town,5.4112,100.3354,31.97,55,20,4.63,MY,1722245912
361,vadso,70.0744,29.7487,18.49,77,20,6.17,NO,1722245912
362,hami,42.8,93.45,40.48,10,10,5.12,CN,1722245913
363,fort st. john,56.2499,-120.8529,13.94,88,100,3.6,CA,1722245913
364,novobelokatay,55.7062,58.9549,13.82,92,100,2.73,RU,1722245913
365,the pas,53.8251,-101.2541,15.01,94,0,2.06,CA,1722245914
366,torghay,49.6339,63.4981,27.79,23,0,8.84,KZ,1722245914
367,gowurdak,37.8124,66.0466,43.91,8,0,11.75,TM,1722245914
368,st. john's,47.5649,-52.7093,20.64,86,20,9.77,CA,1722245915
369,bukama,-9.2,25.85,35.75,8,13,0.44,CD,1722245915
370,antofagasta,-23.65,-70.4,14.6,92,30,0.91,CL,1722245915
371,puerto armuelles,8.2833,-82.8667,27.83,73,100,0.45,PA,1722245915
372,gwadar,25.1216,62.3254,30.0,78,93,5.35,PK,1722245916
373,tukrah,32.5341,20.5791,30.12,56,0,6.42,LY,1722245916
374,bengkulu,-3.8004,102.2655,28.26,75,71,4.82,ID,1722245916
375,tarija,-21.5355,-64.7296,10.07,97,100,2.72,BO,1722245917
376,maun,-19.9833,23.4167,25.19,9,0,3.16,BW,1722245917
377,roswell,34.0232,-84.3616,23.06,95,100,1.54,US,1722245917
378,pacific grove,36.6177,-121.9166,14.01,91,100,2.24,US,1722245918
379,saudarkrokur,65.7461,-19.6394,11.14,91,100,3.49,IS,1722245918
380,taroa,8.7058,171.2275,26.69,82,100,5.07,MH,1722245918
381,narwar,25.65,77.9,34.09,55,96,3.8,IN,1722245919
382,akureyri,65.6835,-18.0878,12.96,76,75,6.17,IS,1722245919
383,puerto colombia,10.9878,-74.9547,28.05,81,56,7.33,CO,1722245919
384,touros,-5.1989,-35.4608,25.06,84,45,5.55,BR,1722245920
385,sydney mines,46.2367,-60.2177,19.32,83,40,2.24,CA,1722245920
386,yatou,37.15,122.3833,27.75,86,72,3.37,CN,1722245920
387,huilong,31.8111,121.655,28.23,84,0,7.83,CN,1722245921
388,andalusia,31.3085,-86.4833,23.08,97,0,0.0,US,1722245921
389,uelsen,52.5,6.8833,22.68,58,11,2.42,DE,1722245921
390,tongliao,43.6125,122.2653,31.19,47,70,1.85,CN,1722245921
391,hasaki,35.7333,140.8333,31.22,84,97,3.92,JP,1722245922
392,maumere,-8.6199,122.2111,25.73,84,61,1.01,ID,1722245922
393,bikenibeu village,1.3673,173.1241,26.98,83,20,1.03,KI,1722245922
394,todos santos,23.45,-110.2167,28.5,90,17,2.11,MX,1722245923
395,arkhangel'sk,64.5401,40.5433,15.06,77,100,4.0,RU,1722245923
396,klaksvik,62.2266,-6.589,12.51,95,100,10.34,FO,1722245923
397,sarmiento,-45.5882,-69.07,1.04,70,75,1.86,AR,1722245924
398,itacare,-14.2775,-38.9967,21.05,93,86,2.01,BR,1722245924
399,marquette,46.5333,-87.6335,21.69,95,100,4.02,US,1722245924
400,bonthe,7.5264,-12.505,25.1,88,100,5.29,SL,1722245925
401,katsuura,35.1333,140.3,26.88,91,100,4.65,JP,1722245925
402,nkowakowa,-23.8878,30.2871,21.96,34,0,2.46,ZA,1722245925
403,arboga,59.3939,15.8388,21.19,43,0,4.68,SE,1722245926
404,portland,45.5234,-122.6762,17.24,83,0,0.45,US,1722245676
405,suicheng,33.8963,117.9331,31.56,75,0,3.6,CN,1722245926
406,singleton,-32.5667,151.1833,9.43,71,85,1.01,AU,1722245926
407,sinabang,2.4803,96.3801,28.87,73,90,1.11,ID,1722245927
408,concordia,-31.393,-58.0209,4.32,88,5,3.26,AR,1722245927
409,fuxin,42.0156,121.6589,31.37,54,43,1.1,CN,1722245928
410,antsiranana,-12.2787,49.2917,29.42,51,40,4.12,MG,1722245928
411,saint-pierre,-21.3393,55.4781,25.82,57,0,3.09,RE,1722245928
412,colonia,50.9333,6.95,25.25,60,0,1.54,DE,1722245929
413,plonsk,52.6235,20.3755,21.6,42,40,9.52,PL,1722245929
414,porto cristo,39.5395,3.333,36.47,49,0,3.89,ES,1722245929
415,saranac lake,44.3295,-74.1313,16.05,98,100,0.26,US,1722245930
416,san patricio,28.017,-97.5169,28.94,87,25,4.71,US,1722245930
417,porto novo,6.4965,2.6036,26.9,66,100,4.84,BJ,1722245930
418,little river,33.8732,-78.6142,21.09,92,0,0.0,US,1722245931
419,kenai,60.5544,-151.2583,11.19,100,100,2.06,US,1722245931
420,sungai penuh,-2.0833,101.3833,22.07,92,100,1.11,ID,1722245931
421,khowai,24.1,91.6333,33.88,80,100,3.93,IN,1722245932
422,airdrie,55.866,-3.9803,18.09,72,100,4.56,GB,1722245932
423,aripuana,-9.1667,-60.6333,19.67,59,1,0.83,BR,1722245932
424,tarawa,1.419,172.984,27.05,83,20,1.03,KI,1722245933
425,ingeniero jacobacci,-41.3427,-69.5448,-1.49,32,33,1.23,AR,1722245933
426,iquique,-20.2208,-70.1431,15.02,82,7,1.75,CL,1722245933
427,chulakkurgan,43.765,69.1814,32.23,16,29,5.4,KZ,1722245934
428,talagutong,6.2644,125.6678,28.43,80,35,4.34,PH,1722245934
429,port blair,11.6667,92.75,30.02,79,75,7.2,IN,1722245934
430,juneau,58.3019,-134.4197,12.28,91,75,0.0,US,1722245935
431,vilyuysk,63.7553,121.6247,19.48,66,94,4.52,RU,1722245935
432,cole harbour,44.6724,-63.4751,17.77,91,100,2.57,CA,1722245935
433,ayios konstandinos,38.6333,21.4,36.17,11,0,1.57,GR,1722245936
434,noosa heads,-26.3833,153.15,13.39,41,0,5.72,AU,1722245703
435,aral,40.5156,81.2636,42.15,9,35,2.87,CN,1722245936
436,gao,16.6362,1.637,31.98,43,20,7.06,ML,1722245936
437,crane,31.3974,-102.3501,24.38,76,0,7.63,US,1722245937
438,villarejo de salvanes,40.1666,-3.2728,30.07,35,79,2.06,ES,1722245937
439,guia lopes da laguna,-21.4578,-56.1142,17.85,42,3,0.61,BR,1722245937
440,minas de marcona,-15.2119,-75.1103,9.23,93,19,2.94,PE,1722245938
441,clarion,41.2148,-79.3853,17.59,93,1,1.43,US,1722245938
442,wakkanai,45.4094,141.6739,20.99,94,75,4.12,JP,1722245939
443,guarapari,-20.6667,-40.4975,20.5,78,0,3.0,BR,1722245939
444,biankouma,7.7391,-7.6138,23.6,83,100,2.46,CI,1722245939
445,laguna,38.421,-121.4238,17.47,78,0,2.57,US,1722245940
446,miranda,3.2499,-76.2281,18.07,70,77,2.32,CO,1722245940
447,walvis bay,-22.9575,14.5053,10.61,93,0,1.03,NA,1722245940
448,tocache,-8.1842,-76.5125,20.06,97,42,0.39,PE,1722245941
449,chengde,40.9725,117.9361,27.09,80,92,5.51,CN,1722245941
450,thames,-37.1333,175.5333,13.98,95,100,5.42,NZ,1722245941
451,zaozersk,69.4005,32.4476,14.27,73,87,5.37,RU,1722245942
452,valley center,33.2184,-117.0342,17.88,91,0,0.89,US,1722245942
453,atafu village,-8.5421,-172.5159,27.6,75,94,9.93,TK,1722245942
454,robore,-18.3333,-59.75,18.4,62,4,1.42,BO,1722245943
455,lodja,-3.4833,23.4333,38.62,13,0,1.16,CD,1722245943
456,riyadh,24.6877,46.7219,41.08,10,100,8.87,SA,1722245879
457,volchikha,52.0333,80.3833,28.07,42,30,3.96,RU,1722245944
458,ar ruways,24.1103,52.7306,39.87,30,76,7.08,AE,1722245944
459,ust-nera,64.5667,143.2,16.9,68,100,2.37,RU,1722245944
460,pandan,14.0453,124.1694,28.32,75,84,2.53,PH,1722245945
461,maragogi,-9.0122,-35.2225,24.26,87,74,4.05,BR,1722245945
462,hun,29.1268,15.9477,31.25,29,0,3.72,LY,1722245945
463,kidal,18.4411,1.4078,33.21,38,16,4.98,ML,1722245946
464,kirensk,57.7853,108.1119,25.48,67,95,1.39,RU,1722245946
465,mantua,45.1667,10.7833,31.3,61,2,1.79,IT,1722245947
466,aqaba,29.5267,35.0078,36.92,19,0,5.14,JO,1722245947
467,iskateley,67.6803,53.1512,22.7,57,100,5.92,RU,1722245947
468,east london,-33.0153,27.9116,15.52,33,0,7.2,ZA,1722245948
469,sucua,-2.4667,-78.1667,17.89,88,17,1.71,EC,1722245948
470,imbituba,-28.24,-48.6703,19.36,97,100,4.15,BR,1722245948
471,tabou,4.423,-7.3528,24.93,84,100,6.39,CI,1722245949
472,rocha,-34.4833,-54.3333,3.27,74,0,2.38,UY,1722245949
473,belaya kholunitsa,58.84,50.8528,12.82,98,100,2.36,RU,1722245949
474,korla,41.7597,86.1469,39.12,13,29,1.4,CN,1722245950
475,mazatlan,23.2167,-106.4167,27.17,78,0,1.54,MX,1722245950
476,coronel suarez,-37.4547,-61.9334,-1.26,37,0,2.04,AR,1722245950
477,luderitz,-26.6481,15.1594,16.28,45,0,8.05,NA,1722245951
478,pimentel,-6.8367,-79.9342,16.16,88,40,1.54,PE,1722245951
479,alice town,25.7167,-79.3,28.46,74,98,1.65,BS,1722245951
480,sitka,57.0531,-135.33,13.94,82,100,0.0,US,1722245952
481,ammon,43.4696,-111.9666,14.41,64,0,0.89,US,1722245952
482,ciudad lazaro cardenas,17.9583,-102.2,25.16,87,96,1.93,MX,1722245952
483,mersin,36.862,34.6509,32.37,40,0,3.84,TR,1722245952
484,carutapera,-1.195,-46.02,25.99,79,9,3.99,BR,1722245953
485,kitimat,54.0524,-128.6534,15.21,61,100,2.24,CA,1722245953
486,manggar,-2.8833,108.2667,28.56,73,12,5.48,ID,1722245954
487,shagonar,51.5333,92.8,27.35,41,100,2.45,RU,1722245954
488,brainerd,46.358,-94.2008,19.88,96,20,2.06,US,1722245954
489,bulolo,-7.2,146.65,21.37,98,71,1.47,PG,1722245955
490,lensk,60.7253,114.9278,24.64,53,78,5.63,RU,1722245955
491,viedma,-40.8135,-62.9967,0.95,37,0,3.31,AR,1722245955
492,galappo,-4.2667,35.85,27.62,32,6,2.87,TZ,1722245956
493,nova vicosa,-17.8919,-39.3719,21.75,83,4,2.04,BR,1722245956
494,flin flon,54.7682,-101.865,14.65,80,90,2.41,CA,1722245956
495,sesheke,-17.4759,24.2968,29.03,5,2,2.88,ZM,1722245957
496,al qadarif,14.0349,35.3834,28.23,60,90,5.54,SD,1722245957
497,lorengau,-2.0226,147.2712,27.35,83,24,4.12,PG,1722245957
498,happy valley-goose bay,53.3168,-60.3315,17.17,77,75,0.0,CA,1722245958
499,axim,4.8699,-2.2405,25.63,76,100,3.89,GH,1722245958
500,lubang,13.8584,120.124,28.49,72,100,3.56,PH,1722245958
501,san antonio de pale,-1.4014,5.6325,22.46,78,98,5.55,GQ,1722245959
502,kibaha,-6.7667,38.9167,31.19,39,71,1.97,TZ,1722245959
503,autun,46.95,4.3,29.0,45,0,1.32,FR,1722245960
504,baukau,51.5526,7.2042,25.16,57,4,2.55,DE,1722245960
505,pasuquin,18.3328,120.6177,29.97,79,75,5.66,PH,1722245960
506,ashland,40.8167,-82.2665,22.12,94,100,1.97,US,1722245960
507,yangambi,0.8102,24.4336,34.46,37,9,1.8,CD,1722245961
508,kholmsk,47.0511,142.0569,18.92,96,100,2.64,RU,1722245961
509,minuwangoda,7.1663,79.9533,28.96,79,75,5.14,LK,1722245961
510,jirja,26.3383,31.8916,38.9,15,6,1.93,EG,1722245962
511,lindi,-10.0,39.7167,31.37,39,0,3.52,TZ,1722245962
512,aksuat,48.7167,83.7,32.37,24,73,5.34,KZ,1722245962
513,taichung,24.1469,120.6839,31.38,73,75,0.89,TW,1722245674
514,sukhothai,17.25,99.6667,32.94,62,40,5.14,TH,1722245963
515,byron bay,-28.65,153.6167,9.28,57,0,4.01,AU,1722245815
516,luanda,-8.8368,13.2343,22.0,78,75,3.6,AO,1722245964
517,nalut,30.3333,10.85,32.74,25,0,3.06,LY,1722245964
518,agde,43.3108,3.4758,30.02,48,0,2.57,FR,1722245964
519,usinsk,65.9939,57.5281,19.75,75,100,8.06,RU,1722245965
520,sao miguel do tapuio,-5.5036,-41.3233,22.28,65,0,2.2,BR,1722245965
521,cotonou,6.3654,2.4183,26.99,78,40,6.17,BJ,1722245965
522,forster,-32.1667,152.5167,11.32,78,100,10.08,AU,1722245965
523,laboulaye,-34.1266,-63.3912,1.81,42,14,3.28,AR,1722245966
524,stavanger,58.9701,5.7333,18.37,55,0,2.06,NO,1722245966
525,dolbeau-mistassini,48.8763,-72.212,20.36,80,1,0.89,CA,1722245966
526,mammoth lakes,37.6485,-118.9721,7.67,52,0,0.0,US,1722245967
527,nacala,-14.5428,40.6728,28.62,54,40,4.12,MZ,1722245967
528,prachuap khiri khan,12.2167,99.75,25.99,81,100,2.8,TH,1722245968
529,manta,-0.95,-80.7333,21.88,94,100,4.12,EC,1722245968
530,faya-largeau,17.9257,19.1043,37.68,29,10,5.78,TD,1722245968
531,acarau,-2.8856,-40.12,24.31,84,19,6.08,BR,1722245969
532,fisterra,42.9049,-9.2629,31.84,87,78,1.25,ES,1722245969
533,salahonda,2.1019,-78.7217,25.73,89,98,3.77,CO,1722245969
534,ocean shores,46.9737,-124.1563,16.27,94,100,3.6,US,1722245970
535,fada,7.25,4.0667,25.37,88,75,3.09,NG,1722245970
536,wabag,-5.4781,143.7021,14.29,98,83,0.18,PG,1722245970
537,wongsorejo,-7.9908,114.4009,25.95,81,71,4.36,ID,1722245971
538,sertania,-8.0736,-37.2644,20.82,69,66,5.04,BR,1722245971
539,kotlas,61.2611,46.6556,15.54,89,100,2.24,RU,1722245971
540,acapulco de juarez,16.8634,-99.8901,27.9,74,75,3.09,MX,1722245972
541,vila do maio,15.1333,-23.2167,26.44,75,97,5.89,CV,1722245972
542,kharp,66.8014,65.8081,22.42,59,100,7.51,RU,1722245972
543,labytnangi,66.6572,66.4183,22.17,66,100,7.55,RU,1722245973
544,bontoc,17.0899,120.978,21.9,97,100,1.26,PH,1722245973
545,tuzha,57.6062,47.936,16.84,78,90,3.61,RU,1722245973
546,dunedin,-45.8742,170.5036,7.11,97,100,2.24,NZ,1722245974
547,taitung city,22.7583,121.1444,29.15,84,75,2.06,TW,1722245974
548,ghanzi,-21.5667,21.7833,20.28,15,0,2.84,BW,1722245974
549,ngorongoro,-3.2397,35.4875,21.28,38,21,2.59,TZ,1722245975
550,cidreira,-30.1811,-50.2056,13.63,89,100,8.51,BR,1722245975
551,tidjikja,18.5564,-11.4271,32.14,38,25,7.21,MR,1722245976
552,phek,25.6667,94.5,26.08,83,100,0.83,IN,1722245976
553,cabo san lucas,22.8909,-109.9124,30.61,65,51,2.68,MX,1722245976
554,andradas,-22.0681,-46.5692,15.36,62,0,2.46,BR,1722245977
555,geraldton,-28.7667,114.6,18.23,94,75,5.66,AU,1722245977
556,lashio,22.9333,97.75,23.39,98,100,0.97,MM,1722245977
557,napili-honokowai,20.9708,-156.6705,24.51,77,99,6.33,US,1722245978
558,mahanoro,-19.9,48.8,25.58,58,0,5.44,MG,1722245978
559,cartagena,10.3997,-75.5144,25.79,94,0,1.03,CO,1722245978
560,shitanjing,39.2342,106.3439,21.69,63,100,2.13,CN,1722245979
561,necochea,-38.5473,-58.7368,0.77,55,1,4.0,AR,1722245979
562,jieshi,22.8134,115.8257,28.07,84,82,6.36,CN,1722245979
563,arraial do cabo,-22.9661,-42.0278,17.92,94,20,1.03,BR,1722245980
564,burhanpur,21.3,76.2333,23.91,97,100,5.02,IN,1722245980
565,padang,-0.9492,100.3543,31.03,81,97,2.03,ID,1722245980
566,tazacorte,28.629,-17.9293,23.54,93,75,4.12,ES,1722245981
567,kiunga,-6.1219,141.2906,22.82,98,39,1.38,PG,1722245981
568,kalianget,-7.05,113.9333,32.75,72,16,5.01,ID,1722245981
569,gambela,8.25,34.5833,24.21,87,100,0.49,ET,1722245982
570,mirpur sakro,24.5474,67.6277,31.54,64,100,5.99,PK,1722245982
571,nieuw amsterdam,5.8833,-55.0833,25.09,94,0,0.0,SR,1722245982
572,an nuhud,12.7,28.4333,31.55,46,23,6.6,SD,1722245983
573,tangwani,28.2787,68.9972,45.1,23,38,1.79,PK,1722245983
574,lhokseumawe,5.1801,97.1507,29.65,68,100,2.93,ID,1722245983
575,banjarmasin,-3.3244,114.591,31.08,69,96,2.43,ID,1722245915
576,troitsko-pechorsk,62.7084,56.1964,21.41,56,55,1.97,RU,1722245984
577,quang ngai,15.1167,108.8,28.95,80,100,2.21,VN,1722245984
578,shalya,57.2471,58.7298,14.02,93,100,3.33,RU,1722245984
579,mansa,29.9833,75.3833,39.02,39,90,1.17,IN,1722245985
580,santa cruz,-17.8,-63.1667,19.7,83,75,6.69,BO,1722245985
